elevation,mindate,maxdate,latitude,name,datacoverage,id,elevationUnit,longitude
226.2,2007-06-24,2026-03-20,33.028,"PLANO 2.4 WSW, TX US",0.9755,GHCND:US1TXCLL008,METERS,-96.783
167.9,2007-08-14,2016-06-14,33.017054,"WYLIE 2.6 SW, TX US",0.2828,GHCND:US1TXCLL009,METERS,-96.546337
221.3,2007-10-08,2020-05-14,33.1685,"MCKINNEY 3.1 SW, TX US",0.8047,GHCND:US1TXCLL011,METERS,-96.693
242.9,2007-12-30,2017-04-01,33.39619,"CELINA 7.3 NE, TX US",0.711,GHCND:US1TXCLL013,METERS,-96.696745
203.0,2008-01-17,2017-04-22,33.084936,"PLANO 4.6 NW, TX US",0.1002,GHCND:US1TXCLL014,METERS,-96.714702
196.9,2008-01-08,2014-07-31,33.14275,"FAIRVIEW 0.7 W, TX US",0.6871,GHCND:US1TXCLL015,METERS,-96.63677
162.2,2008-01-31,2012-08-19,33.108,"LUCAS 3.7 E, TX US",0.1377,GHCND:US1TXCLL017,METERS,-96.515
205.7,2008-07-25,2018-05-30,33.053943,"PLANO 5.3 W, TX US",0.8474,GHCND:US1TXCLL018,METERS,-96.837117
223.4,2008-06-01,2014-10-23,33.0275,"PLANO 2.5 WSW, TX US",0.792,GHCND:US1TXCLL019,METERS,-96.7846
166.1,2008-03-08,2022-12-12,33.163622,"LOWRY CROSSING 0.3 SSE, TX US",0.5126,GHCND:US1TXCLL020,METERS,-96.543231
220.4,2008-05-21,2016-09-26,33.081096,"PLANO 2.4 N, TX US",0.335,GHCND:US1TXCLL022,METERS,-96.749102
187.1,2008-08-18,2026-03-20,33.13341,"FAIRVIEW 1.5 ESE, TX US",0.8313,GHCND:US1TXCLL023,METERS,-96.60034
184.1,2008-08-23,2026-03-20,33.19275,"MCKINNEY 1.6 ESE, TX US",0.768,GHCND:US1TXCLL026,METERS,-96.62883
176.8,2008-09-21,2026-03-11,33.312697,"ANNA 3.7 SSW, TX US",0.9937,GHCND:US1TXCLL030,METERS,-96.582716
220.4,2008-10-27,2014-04-21,33.343985,"ANNA 1.5 WSW, TX US",0.5392,GHCND:US1TXCLL032,METERS,-96.573846
203.3,2001-07-31,2026-03-10,32.992101,"RICHARDSON 2.2 NW, TX US",0.609,GHCND:US1TXCLL033,METERS,-96.739666
152.1,2009-03-02,2014-01-20,32.98872,"WYLIE 2.9 SW, TX US",0.8891,GHCND:US1TXCLL037,METERS,-96.552998
217.6,2010-01-14,2017-12-21,33.163682,"MCKINNEY 3.1 SW, TX US",0.0952,GHCND:US1TXCLL039,METERS,-96.6850599
215.8,2010-02-06,2017-08-31,33.171944,"FRISCO 1.9 N, TX US",0.8719,GHCND:US1TXCLL040,METERS,-96.811667
217.3,2010-06-01,2010-11-23,33.09061,"PLANO 3.1 N, TX US",0.9773,GHCND:US1TXCLL042,METERS,-96.746133
171.9,2011-07-27,2026-03-11,33.000497,"MURPHY 0.9 SSW, TX US",0.6234,GHCND:US1TXCLL044,METERS,-96.6115536
201.5,2011-01-13,2026-03-20,33.243423,"MCKINNEY 7.3 NE, TX US",0.8091,GHCND:US1TXCLL045,METERS,-96.525862
222.5,2013-07-27,2018-06-21,33.181283,"MCKINNEY 3.2 WSW, TX US",0.1558,GHCND:US1TXCLL052,METERS,-96.7056
226.2,2013-09-20,2019-12-10,33.0988464355469,"PLANO 3.9 NNW, TX US",0.1843,GHCND:US1TXCLL053,METERS,-96.7686157226563
214.9,2014-07-01,2026-03-11,33.34953,"ANNA 0.3 SW, TX US",0.7364,GHCND:US1TXCLL057,METERS,-96.552523
203.3,2014-07-17,2026-03-11,33.014774,"PLANO 2.3 SSE, TX US",0.3062,GHCND:US1TXCLL058,METERS,-96.735184
166.7,2014-10-01,2026-03-20,33.0359,"LAVON 0.7 NNW, TX US",0.9737,GHCND:US1TXCLL060,METERS,-96.440988
161.2,2014-10-18,2020-09-10,32.993336,"SACHSE 1.3 N, TX US",0.0506,GHCND:US1TXCLL061,METERS,-96.580597
161.8,2015-03-17,2017-01-01,33.029743,"WYLIE 0.9 S, TX US",0.9787,GHCND:US1TXCLL063,METERS,-96.516342
177.1,2015-03-24,2018-10-20,33.1649,"MCKINNEY 4.0 SE, TX US",0.2334,GHCND:US1TXCLL065,METERS,-96.6013
175.0,2015-06-14,2026-03-20,33.158779,"PRINCETON 2.0 SSE, TX US",0.9334,GHCND:US1TXCLL067,METERS,-96.489598
160.6,2015-06-10,2019-01-04,33.020747,"WYLIE 1.6 SSE, TX US",0.4,GHCND:US1TXCLL068,METERS,-96.507468
159.1,2015-06-13,2026-03-18,32.9847221374512,"SACHSE 1.0 NE, TX US",0.8502,GHCND:US1TXCLL069,METERS,-96.5674438476563
194.5,2015-12-03,2016-11-11,33.276183,"MCKINNEY 5.5 NNE, TX US",0.8609,GHCND:US1TXCLL070,METERS,-96.624755
232.9,2015-12-13,2017-06-04,33.104593,"PLANO 4.1 N, TX US",0.5519,GHCND:US1TXCLL071,METERS,-96.752804
186.8,2015-12-17,2020-07-01,33.0286,"PLANO 4.1 ESE, TX US",0.9198,GHCND:US1TXCLL072,METERS,-96.67889
186.2,2016-04-29,2023-07-04,33.0249916,"PLANO 4.5 ESE, TX US",0.3782,GHCND:US1TXCLL074,METERS,-96.67240349
232.9,2016-05-30,2025-10-25,33.2475814819336,"PROSPER 1.0 ENE, TX US",0.1033,GHCND:US1TXCLL075,METERS,-96.7713012695313
163.1,2016-09-09,2022-02-19,33.006255,"MURPHY 1.2 ESE, TX US",0.2452,GHCND:US1TXCLL076,METERS,-96.594507
172.8,2016-11-09,2026-02-27,33.271907,"BLUE RIDGE 5.1 ESE, TX US",0.9408,GHCND:US1TXCLL077,METERS,-96.317582
172.2,2018-07-22,2020-01-04,33.026876,"MURPHY 1.0 NNE, TX US",0.8891,GHCND:US1TXCLL091,METERS,-96.602698
190.5,2018-08-10,2026-03-20,33.080044,"JOSEPHINE 1.4 NNW, TX US",0.5403,GHCND:US1TXCLL092,METERS,-96.325607
225.6,2018-10-01,2022-11-14,33.391628,"VAN ALSTYNE 2.4 SE, TX US",0.9363,GHCND:US1TXCLL094,METERS,-96.548492
208.8,2019-03-12,2020-02-13,33.123233,"ALLEN 1.6 NW, TX US",0.8525,GHCND:US1TXCLL096,METERS,-96.690895
185.0,2019-03-21,2025-02-09,32.990856,"RICHARDSON 2.2 NE, TX US",0.9447,GHCND:US1TXCLL097,METERS,-96.679404
201.8,2020-03-27,2022-07-31,32.9936,"RICHARDSON 1.8 NW, TX US",0.762,GHCND:US1TXCLL099,METERS,-96.72848
223.1,2020-05-23,2026-03-18,33.17062,"MCKINNEY 3.1 SW, TX US",0.9097,GHCND:US1TXCLL101,METERS,-96.693817
228.6,2020-06-19,2021-07-15,33.17598,"MCKINNEY 4.0 WSW, TX US",0.8878,GHCND:US1TXCLL102,METERS,-96.71704
203.3,2020-07-25,2024-10-09,33.29456,"MELISSA 1.5 ENE, TX US",0.7575,GHCND:US1TXCLL103,METERS,-96.555
173.1,2021-01-23,2026-02-15,33.0488,"NEVADA 2.0 WNW, TX US",0.9632,GHCND:US1TXCLL105,METERS,-96.4037
204.2,2021-11-01,2026-03-20,33.1073511,"ALLEN 1.3 E, TX US",0.9344,GHCND:US1TXCLL106,METERS,-96.646355
154.5,2022-10-14,2026-02-05,33.011951,"WYLIE 3.5 SW, TX US",0.0925,GHCND:US1TXCLL107,METERS,-96.560904
171.3,2021-12-06,2026-03-20,33.03216,"WYLIE 2.4 WSW, TX US",0.9029,GHCND:US1TXCLL110,METERS,-96.55254
214.3,2022-04-03,2026-03-15,33.241665,"MCKINNEY 3.7 NW, TX US",0.7831,GHCND:US1TXCLL112,METERS,-96.695919
222.8,2022-05-01,2026-03-20,33.159744,"MCKINNEY 3.3 SSW, TX US",0.8592,GHCND:US1TXCLL116,METERS,-96.682963
230.1,2022-05-16,2026-03-19,33.036055,"PLANO 1.8 WSW, TX US",0.7764,GHCND:US1TXCLL118,METERS,-96.774704
231.6,2023-04-17,2026-03-20,33.19987,"MCKINNEY 5.0 W, TX US",0.811,GHCND:US1TXCLL122,METERS,-96.7412
192.3,2023-07-31,2026-03-11,32.99607,"PLANO 4.3 SW, TX US",0.4492,GHCND:US1TXCLL125,METERS,-96.791868
207.0,2023-10-26,2025-01-10,33.118272,"ALLEN 1.9 ENE, TX US",0.4921,GHCND:US1TXCLL127,METERS,-96.639141
159.1,1998-06-17,2026-03-11,32.863,"UNIVERSITY PARK 3.1 WNW, TX US",0.7108,GHCND:US1TXDA0003,METERS,-96.845
164.9,2006-10-17,2026-03-19,32.932145,"ROWLETT 2.3 NW, TX US",0.9153,GHCND:US1TXDA0004,METERS,-96.57692
231.0,2007-03-11,2012-08-26,32.572461,"CEDAR HILL 0.5 S, TX US",0.253,GHCND:US1TXDA0007,METERS,-96.957374
178.3,2008-06-06,2026-03-20,32.709079,"DALLAS 7.2 SW, TX US",0.9267,GHCND:US1TXDA0013,METERS,-96.83827
140.2,2008-08-11,2011-07-28,32.978095,"COPPELL 1.1 NNW, TX US",0.2403,GHCND:US1TXDA0015,METERS,-96.998126
214.6,2008-07-03,2026-03-20,32.669782,"DUNCANVILLE 1.7 NNW, TX US",0.998,GHCND:US1TXDA0016,METERS,-96.921618
167.0,2014-08-01,2016-05-18,32.8297,"MESQUITE 5.1 NW, TX US",0.9117,GHCND:US1TXDA0017,METERS,-96.6486
194.8,2008-08-28,2010-10-26,32.965297,"RICHARDSON 1.7 WSW, TX US",0.857,GHCND:US1TXDA0021,METERS,-96.738474
139.9,2009-05-30,2016-06-30,32.74759,"MESQUITE 3.3 ESE, TX US",0.8996,GHCND:US1TXDA0026,METERS,-96.54935
150.9,2009-06-01,2014-11-03,32.8041,"DALLAS 1.4 WNW, TX US",0.6534,GHCND:US1TXDA0027,METERS,-96.7863
153.0,2010-10-29,2012-06-14,32.960073,"CARROLLTON 1.9 S, TX US",0.8941,GHCND:US1TXDA0033,METERS,-96.89987
183.8,2011-06-01,2026-03-08,32.957486,"RICHARDSON 2.4 WSW, TX US",0.8122,GHCND:US1TXDA0035,METERS,-96.747908
238.7,2011-07-08,2022-10-16,32.55479,"CEDAR HILL 1.8 S, TX US",0.7917,GHCND:US1TXDA0036,METERS,-96.957414
158.2,2012-04-28,2016-11-28,32.8076119,"MESQUITE 2.8 NNW, TX US",0.5149,GHCND:US1TXDA0037,METERS,-96.6139058
176.2,2012-04-17,2015-10-05,32.8656044006348,"DALLAS 6.6 NE, TX US",0.9732,GHCND:US1TXDA0039,METERS,-96.6900863647461
210.9,2013-06-24,2016-11-28,32.6382675170898,"DUNCANVILLE 0.9 SE, TX US",0.5566,GHCND:US1TXDA0045,METERS,-96.9013748168945
191.4,2013-01-29,2026-03-14,32.6136589050293,"CEDAR HILL 2.4 NNW, TX US",0.7884,GHCND:US1TXDA0047,METERS,-96.9712448120117
172.8,2013-09-01,2026-03-11,32.8210879,"DALLAS 2.1 NNE, TX US",0.4763,GHCND:US1TXDA0048,METERS,-96.7491816
246.0,2002-01-21,2026-03-11,32.599609,"CEDAR HILL 1.4 N, TX US",0.4106,GHCND:US1TXDA0050,METERS,-96.953694
157.9,1998-06-17,2022-06-12,32.77092,"MESQUITE 2.4 W, TX US",0.2975,GHCND:US1TXDA0052,METERS,-96.640881
150.0,2014-11-01,2026-03-11,32.815197,"DALLAS 2.7 WNW, TX US",0.9875,GHCND:US1TXDA0053,METERS,-96.803515
132.0,2015-01-24,2015-06-19,32.936756,"IRVING 5.6 NNE, TX US",0.8707,GHCND:US1TXDA0057,METERS,-96.947624
159.4,2009-04-06,2021-08-18,32.873088,"GARLAND 2.6 S, TX US",0.3083,GHCND:US1TXDA0058,METERS,-96.623847
165.8,2015-02-04,2020-02-23,32.8525199890137,"GARLAND 4.1 S, TX US",0.2985,GHCND:US1TXDA0060,METERS,-96.6399078369141
186.8,2015-02-27,2026-03-20,32.613008,"DESOTO 2.2 ENE, TX US",0.996,GHCND:US1TXDA0063,METERS,-96.827942
171.0,2015-03-08,2023-04-07,32.955,"GARLAND 3.6 NNW, TX US",0.9854,GHCND:US1TXDA0065,METERS,-96.6622
159.4,2015-03-29,2022-02-08,32.822,"MESQUITE 3.7 N, TX US",0.9928,GHCND:US1TXDA0069,METERS,-96.5999
153.3,2015-04-02,2026-03-17,32.8025,"MESQUITE 2.3 N, TX US",0.9875,GHCND:US1TXDA0070,METERS,-96.6065
157.3,2015-06-13,2016-01-07,32.96368,"SACHSE 0.8 S, TX US",0.8038,GHCND:US1TXDA0072,METERS,-96.579794
,2015-01-12,2019-08-11,32.978515625,"SACHSE 0.4 NE, TX US",0.8267,GHCND:US1TXDA0073,,-96.5763549804688
164.3,2015-09-23,2021-07-11,32.952006,"CARROLLTON 2.8 SSE, TX US",0.8249,GHCND:US1TXDA0075,METERS,-96.876272
164.6,2016-01-26,2026-03-19,32.807458,"DALLAS 1.0 NNE, TX US",0.8357,GHCND:US1TXDA0076,METERS,-96.759065
199.0,2016-08-29,2019-02-22,32.566194,"GLENN HEIGHTS 1.4 NE, TX US",0.7963,GHCND:US1TXDA0077,METERS,-96.837615
156.7,2016-10-15,2026-03-11,32.656483,"DUNCANVILLE 3.2 WNW, TX US",0.956,GHCND:US1TXDA0080,METERS,-96.966564
187.1,2017-10-04,2026-03-20,32.9568,"RICHARDSON 2.7 WSW, TX US",0.9773,GHCND:US1TXDA0087,METERS,-96.7522
170.1,2017-10-22,2020-09-11,32.603373,"MANSFIELD 5.0 ENE, TX US",0.7822,GHCND:US1TXDA0088,METERS,-97.043742
200.6,2018-03-04,2022-08-11,32.96262,"RICHARDSON 3.2 WSW, TX US",0.6264,GHCND:US1TXDA0089,METERS,-96.76307
166.4,2018-05-03,2021-12-14,32.8501,"GARLAND 4.2 S, TX US",0.1959,GHCND:US1TXDA0090,METERS,-96.63649
181.4,2018-08-01,2018-12-07,32.937792,"GARLAND 2.5 NW, TX US",0.9922,GHCND:US1TXDA0091,METERS,-96.658822
187.1,2018-11-04,2021-06-12,32.9392656,"BUCKINGHAM 3.2 W, TX US",0.167,GHCND:US1TXDA0092,METERS,-96.779053
140.2,2019-04-19,2026-03-05,32.7484143620057,"MESQUITE 1.6 SSE, TX US",0.9463,GHCND:US1TXDA0093,METERS,-96.5877214826322
251.5,2019-12-27,2026-03-19,32.570979,"CEDAR HILL 1.2 WSW, TX US",0.8752,GHCND:US1TXDA0097,METERS,-96.975499
155.1,2020-06-08,2022-02-06,32.751969,"COCKRELL HILL 2.3 ENE, TX US",0.9113,GHCND:US1TXDA0098,METERS,-96.85256
133.5,2020-05-14,2021-09-09,32.74092,"MESQUITE 2.0 SSE, TX US",0.9897,GHCND:US1TXDA0099,METERS,-96.58863
178.3,2020-11-22,2026-03-20,32.727644,"DALLAS 7.1 SW, TX US",0.8129,GHCND:US1TXDA0101,METERS,-96.857676
154.8,2020-01-03,2021-01-31,32.934583,"FARMERS BRANCH 0.6 NNE, TX US",0.3139,GHCND:US1TXDA0102,METERS,-96.875863
164.0,2021-01-31,2021-08-17,32.97903,"SACHSE 0.9 ENE, TX US",0.7638,GHCND:US1TXDA0103,METERS,-96.5667
153.0,2021-08-18,2026-03-20,32.965494,"SACHSE 1.4 ESE, TX US",0.9946,GHCND:US1TXDA0105,METERS,-96.558626
162.2,2019-09-12,2024-07-17,32.576763,"LANCASTER 1.5 SSW, TX US",0.1948,GHCND:US1TXDA0106,METERS,-96.795203
183.8,2022-07-23,2025-01-30,32.942229,"ADDISON 2.0 SE, TX US",0.2189,GHCND:US1TXDA0108,METERS,-96.810112
166.4,2022-12-26,2024-04-25,32.813043,"DALLAS 5.4 ENE, TX US",0.9138,GHCND:US1TXDA0112,METERS,-96.674538
186.5,2023-09-17,2026-03-20,32.9576101987191,"GARLAND 4.1 NW, TX US",1.0,GHCND:US1TXDA0114,METERS,-96.6715493397374
168.6,2006-10-16,2026-03-20,33.219136,"SHADY SHORES 3.9 N, TX US",0.9331,GHCND:US1TXDN0001,METERS,-97.05318
196.9,2009-06-01,2026-03-11,33.107837,"NORTHLAKE 2.5 NNW, TX US",0.2707,GHCND:US1TXDN0006,METERS,-97.273586
180.1,2008-02-01,2026-03-20,33.05617142,"FLOWER MOUND 2.3 NE, TX US",0.9844,GHCND:US1TXDN0008,METERS,-97.07029724
185.6,2008-03-10,2019-12-31,33.295462,"CELINA 4.4 WSW, TX US",0.9824,GHCND:US1TXDN0009,METERS,-96.854964
210.9,2008-09-10,2026-03-19,33.350424,"SANGER 1.8 WSW, TX US",0.9828,GHCND:US1TXDN0015,METERS,-97.206263
174.7,2009-01-30,2012-11-04,33.1738,"LITTLE ELM 1.4 ENE, TX US",1.0,GHCND:US1TXDN0017,METERS,-96.9093
176.2,2009-07-09,2026-03-19,33.228153,"LINCOLN PARK 0.8 ENE, TX US",0.9659,GHCND:US1TXDN0021,METERS,-96.959736
197.5,2010-06-28,2013-11-09,33.1777,"DENTON 2.8 SSE, TX US",0.2388,GHCND:US1TXDN0026,METERS,-97.1085
177.4,2010-08-29,2012-10-14,33.100294,"THE COLONY 1.2 ENE, TX US",0.4344,GHCND:US1TXDN0028,METERS,-96.869731
168.2,2011-06-03,2025-11-29,33.200821,"OAK POINT 1.4 NNW, TX US",0.925,GHCND:US1TXDN0032,METERS,-97.003081
169.8,2014-06-27,2019-03-13,33.227044,"AUBREY 5.9 SSE, TX US",0.4149,GHCND:US1TXDN0034,METERS,-96.94331
185.3,2012-06-04,2017-07-26,33.004595,"ROANOKE 1.6 W, TX US",0.7871,GHCND:US1TXDN0036,METERS,-97.260081
172.2,2012-08-19,2020-02-13,33.0153274536133,"CARROLLTON 2.0 NNE, TX US",0.2205,GHCND:US1TXDN0037,METERS,-96.8857498168945
174.7,2012-10-01,2021-05-10,33.1872168928385,"LITTLE ELM 2.5 NE, TX US",1.0,GHCND:US1TXDN0039,METERS,-96.8961719423532
189.0,2013-01-13,2013-11-23,33.22497,"DENTON 2.0 ENE, TX US",0.8063,GHCND:US1TXDN0040,METERS,-97.097861
196.3,2013-02-01,2014-08-29,33.1298942565918,"ARGYLE 1.4 NNW, TX US",0.8957,GHCND:US1TXDN0041,METERS,-97.1855010986328
201.8,2014-06-17,2019-03-17,33.13059,"ARGYLE 1.6 NNW, TX US",0.9429,GHCND:US1TXDN0043,METERS,-97.193155
179.8,2013-10-17,2026-03-19,33.010517,"FLOWER MOUND 1.4 SSE, TX US",0.853,GHCND:US1TXDN0044,METERS,-97.081701
189.6,2013-10-09,2026-03-11,33.2723,"AUBREY 2.9 SW, TX US",0.3064,GHCND:US1TXDN0046,METERS,-97.0148
173.1,2014-03-27,2021-02-26,33.17734,"LITTLE ELM 2.2 ENE, TX US",0.24,GHCND:US1TXDN0047,METERS,-96.895838
173.1,2014-04-27,2016-07-26,33.1584205627441,"FRISCO 4.0 WNW, TX US",0.1496,GHCND:US1TXDN0048,METERS,-96.8809356689453
185.3,2014-09-12,2026-03-11,32.9984,"SOUTHLAKE 3.2 NNW, TX US",0.7054,GHCND:US1TXDN0049,METERS,-97.1614
191.1,2016-06-11,2021-05-08,33.0869190394878,"COPPER CANYON 1.1 SW, TX US",0.7685,GHCND:US1TXDN0053,METERS,-97.1118973195553
228.6,2016-06-03,2026-03-11,33.111993,"JUSTIN 4.2 WNW, TX US",0.195,GHCND:US1TXDN0054,METERS,-97.364958
187.8,2016-11-03,2023-05-15,33.020513,"FLOWER MOUND 1.3 ESE, TX US",0.1057,GHCND:US1TXDN0055,METERS,-97.071494
178.9,2018-09-22,2024-01-05,33.08549,"HIGHLAND VILLAGE 1.0 W, TX US",0.0921,GHCND:US1TXDN0059,METERS,-97.072506
188.1,1998-06-17,2026-03-11,33.018686,"ROANOKE 4.0 WNW, TX US",0.1517,GHCND:US1TXDN0060,METERS,-97.298211
202.1,2018-08-09,2021-06-26,33.035644,"PLANO 6.2 W, TX US",0.9174,GHCND:US1TXDN0061,METERS,-96.852708
165.8,2019-07-15,2026-03-16,33.15486,"SHADY SHORES 1.3 ESE, TX US",0.9885,GHCND:US1TXDN0066,METERS,-97.0245
182.9,2019-07-31,2026-03-20,33.223679,"PROSPER 4.8 WSW, TX US",0.8272,GHCND:US1TXDN0067,METERS,-96.866262
167.3,2020-01-07,2023-11-06,33.156221,"SHADY SHORES 0.7 SE, TX US",0.985,GHCND:US1TXDN0068,METERS,-97.034534
181.7,2020-03-01,2025-11-21,33.232015,"LINCOLN PARK 3.1 ENE, TX US",0.2285,GHCND:US1TXDN0070,METERS,-96.919319
199.3,2020-04-09,2024-09-25,33.0661,"BARTONVILLE 2.2 SE, TX US",0.8933,GHCND:US1TXDN0072,METERS,-97.1301
,2020-06-20,2026-03-11,33.36028,"SANGER 1.3 E, TX US",0.0842,GHCND:US1TXDN0073,,-97.15497
186.8,2020-07-17,2021-09-21,33.195929,"DENTON 2.8 ESE, TX US",0.9398,GHCND:US1TXDN0074,METERS,-97.086942
185.9,2020-06-17,2026-03-20,32.9976,"TROPHY CLUB 0.5 WSW, TX US",0.8726,GHCND:US1TXDN0075,METERS,-97.2015
204.2,2020-08-01,2026-03-18,33.0606841,"DOUBLE OAK 1.1 WSW, TX US",0.839,GHCND:US1TXDN0076,METERS,-97.1304905
184.1,2020-07-04,2026-03-20,33.0141869,"FLOWER MOUND 2.5 ESE, TX US",0.9957,GHCND:US1TXDN0077,METERS,-97.0537835
199.3,2020-07-01,2025-09-22,33.22807,"DENTON 1.5 NE, TX US",0.5785,GHCND:US1TXDN0078,METERS,-97.11127
177.7,2020-07-04,2022-08-31,33.0943945,"THE COLONY 0.7 ENE, TX US",0.9341,GHCND:US1TXDN0079,METERS,-96.8764178
196.6,2020-07-06,2026-03-20,33.1604,"DENTON 4.2 SSE, TX US",0.892,GHCND:US1TXDN0080,METERS,-97.097
205.4,2020-07-20,2026-03-11,33.0400488,"FLOWER MOUND 2.3 WNW, TX US",0.1679,GHCND:US1TXDN0081,METERS,-97.1294843
181.7,2020-07-29,2026-03-19,33.081661,"HIGHLAND VILLAGE 1.0 WSW, TX US",0.9816,GHCND:US1TXDN0082,METERS,-97.070843
200.9,2020-09-01,2022-01-07,33.228173,"DENTON 1.5 NW, TX US",0.8279,GHCND:US1TXDN0083,METERS,-97.151441
181.7,2020-09-01,2021-10-22,33.16026,"DENTON 3.8 SSE, TX US",0.9496,GHCND:US1TXDN0084,METERS,-97.11807
199.9,2020-09-14,2024-06-05,33.279907,"AUBREY 2.3 SW, TX US",0.9904,GHCND:US1TXDN0085,METERS,-97.010085
206.7,2020-11-10,2022-12-15,33.2257873,"DENTON 1.6 WNW, TX US",0.654,GHCND:US1TXDN0088,METERS,-97.1554139
199.6,2021-01-18,2021-07-29,33.321801,"SANGER 2.7 S, TX US",0.6528,GHCND:US1TXDN0089,METERS,-97.177008
162.2,2021-03-03,2022-01-08,33.047941,"LEWISVILLE 0.9 WNW, TX US",0.4359,GHCND:US1TXDN0090,METERS,-96.996917
189.0,2021-03-25,2026-03-11,33.155706,"FRISCO 2.6 WNW, TX US",0.2002,GHCND:US1TXDN0091,METERS,-96.856276
170.1,2021-10-25,2025-08-29,33.11073,"HICKORY CREEK 0.4 ENE, TX US",0.3473,GHCND:US1TXDN0100,METERS,-97.02172
206.3,2021-09-29,2026-03-11,33.226072,"DENTON 1.7 WNW, TX US",0.1262,GHCND:US1TXDN0101,METERS,-97.155932
211.2,2021-09-28,2026-03-20,33.231701,"DENTON 1.2 N, TX US",0.9645,GHCND:US1TXDN0102,METERS,-97.128566
166.7,2021-10-21,2025-10-25,33.1764,"LITTLE ELM 1.6 WNW, TX US",0.2844,GHCND:US1TXDN0105,METERS,-96.953
210.3,2022-01-01,2026-03-08,33.2344,"DENTON 1.5 NNE, TX US",0.8613,GHCND:US1TXDN0107,METERS,-97.1204
232.0,2013-09-09,2025-11-21,33.233928,"PONDER 3.8 N, TX US",0.0507,GHCND:US1TXDN0108,METERS,-97.293207
222.8,1998-06-25,2025-11-21,33.18322,"PONDER 0.3 NNE, TX US",0.0216,GHCND:US1TXDN0109,METERS,-97.2862
207.3,2022-04-05,2025-02-12,33.350385,"SANGER 0.8 SSE, TX US",0.2775,GHCND:US1TXDN0111,METERS,-97.172731
184.7,2022-07-28,2026-03-11,33.046513,"FLOWER MOUND 1.6 NE, TX US",0.9841,GHCND:US1TXDN0113,METERS,-97.076328
173.1,2022-08-22,2026-03-20,33.259761,"DENTON 5.0 NE, TX US",0.5547,GHCND:US1TXDN0115,METERS,-97.064176
190.5,2022-09-01,2026-03-19,32.997351,"TROPHY CLUB 0.2 S, TX US",0.8495,GHCND:US1TXDN0116,METERS,-97.192209
223.7,2022-09-08,2026-03-20,33.265787,"KRUM 0.6 W, TX US",0.7721,GHCND:US1TXDN0117,METERS,-97.240673
181.4,2022-09-22,2026-03-19,33.1858787,"OAK POINT 1.7 E, TX US",0.9075,GHCND:US1TXDN0118,METERS,-96.9665057
196.0,2021-07-26,2026-03-20,33.04386,"FLOWER MOUND 4.8 WNW, TX US",0.6845,GHCND:US1TXDN0120,METERS,-97.173326
191.4,2022-09-18,2026-03-20,33.10995,"ARGYLE 4.1 E, TX US",0.85,GHCND:US1TXDN0121,METERS,-97.10873
207.0,2022-04-25,2025-11-03,33.133239,"ARGYLE 2.2 NE, TX US",0.7386,GHCND:US1TXDN0123,METERS,-97.154383
161.5,2023-05-07,2024-12-27,33.008769,"CARROLLTON 1.5 NNE, TX US",0.8686,GHCND:US1TXDN0125,METERS,-96.889035
168.2,2023-09-01,2025-05-03,33.173697,"SHADY SHORES 0.8 NNW, TX US",0.311,GHCND:US1TXDN0128,METERS,-97.048194
169.2,2023-09-24,2025-03-17,33.150991,"CORINTH 1.3 ENE, TX US",0.9982,GHCND:US1TXDN0132,METERS,-97.043529
186.5,2023-10-01,2026-03-19,33.240561,"DENTON 2.6 NE, TX US",0.9534,GHCND:US1TXDN0134,METERS,-97.098997
189.9,2023-10-26,2024-07-19,33.06122,"DOUBLE OAK 0.4 WSW, TX US",0.8507,GHCND:US1TXDN0138,METERS,-97.11814
255.1,2023-11-05,2024-04-01,33.25,"KRUM 7.0 W, TX US",0.8725,GHCND:US1TXDN0139,METERS,-97.3486
155.1,2023-11-19,2026-03-18,33.0145,"CARROLLTON 2.0 NNW, TX US",0.953,GHCND:US1TXDN0140,METERS,-96.9106
164.9,2007-10-03,2017-05-24,32.4903,"RED OAK 2.0 SSE, TX US",0.6281,GHCND:US1TXEL0006,METERS,-96.799
182.9,2008-01-15,2022-03-21,32.4778,"PECAN HILL 2.7 WSW, TX US",0.9952,GHCND:US1TXEL0007,METERS,-96.8147
218.5,2008-04-03,2021-03-31,32.5019,"OVILLA 2.6 S, TX US",0.9724,GHCND:US1TXEL0010,METERS,-96.8983
177.4,2011-05-12,2022-06-04,32.515474852749,"OAK LEAF 0.8 WSW, TX US",0.8384,GHCND:US1TXEL0014,METERS,-96.8618275553862
190.2,2011-12-04,2017-06-13,32.524761,"OVILLA 1.2 SSE, TX US",0.5914,GHCND:US1TXEL0019,METERS,-96.883278
186.5,2012-05-28,2026-03-16,32.527886,"OAK LEAF 0.6 NNE, TX US",0.3496,GHCND:US1TXEL0020,METERS,-96.845059
110.3,2011-08-23,2016-07-31,32.4816284179688,"ENNIS 11.6 NNE, TX US",0.7241,GHCND:US1TXEL0022,METERS,-96.5378875732422
142.0,2014-04-13,2019-11-15,32.471294,"ENNIS 10.0 NNE, TX US",0.9124,GHCND:US1TXEL0029,METERS,-96.562189
233.5,2014-11-24,2016-08-03,32.491096,"MIDLOTHIAN 2.8 E, TX US",0.7916,GHCND:US1TXEL0034,METERS,-96.949127
202.4,2015-10-22,2017-01-16,32.533467,"MIDLOTHIAN 6.1 ENE, TX US",0.3112,GHCND:US1TXEL0038,METERS,-96.904544
215.8,2016-08-07,2017-09-06,32.5088191,"OVILLA 2.1 S, TX US",0.702,GHCND:US1TXEL0042,METERS,-96.889747
227.4,2017-01-23,2020-11-29,32.514476,"MIDLOTHIAN 3.6 ENE, TX US",0.295,GHCND:US1TXEL0044,METERS,-96.941021
217.6,2017-05-01,2023-02-04,32.496793,"OVILLA 3.1 SSE, TX US",0.6601,GHCND:US1TXEL0046,METERS,-96.877232
187.1,2019-07-30,2026-03-18,32.45775,"WAXAHACHIE 4.1 NNE, TX US",0.4559,GHCND:US1TXEL0051,METERS,-96.814505
218.5,2019-01-28,2026-03-19,32.477962,"WAXAHACHIE 5.3 NNW, TX US",0.8305,GHCND:US1TXEL0052,METERS,-96.888957
185.3,2019-03-11,2021-08-18,32.46781,"WAXAHACHIE 4.6 NNE, TX US",0.759,GHCND:US1TXEL0053,METERS,-96.8208
135.6,2019-11-22,2026-03-20,32.53717,"FERRIS 3.6 E, TX US",0.9805,GHCND:US1TXEL0054,METERS,-96.60192
224.0,2019-12-01,2021-06-07,32.5025,"OVILLA 2.6 S, TX US",0.9784,GHCND:US1TXEL0056,METERS,-96.8943
224.6,2020-01-21,2026-03-08,32.518837,"OVILLA 1.7 SSW, TX US",0.381,GHCND:US1TXEL0059,METERS,-96.906807
175.9,2020-01-23,2021-07-25,32.5159,"RED OAK 1.8 E, TX US",0.9982,GHCND:US1TXEL0060,METERS,-96.7779
223.1,2020-03-08,2026-03-19,32.5026808,"OVILLA 2.6 S, TX US",0.9959,GHCND:US1TXEL0062,METERS,-96.892113299
228.0,2021-01-24,2026-03-11,32.4921185,"MIDLOTHIAN 3.0 E, TX US",0.7501,GHCND:US1TXEL0065,METERS,-96.9469542
237.4,2022-05-03,2026-03-20,32.5405,"CEDAR HILL 3.9 SW, TX US",0.8984,GHCND:US1TXEL0073,METERS,-97.00385
230.7,2021-10-16,2026-03-20,32.47391,"MIDLOTHIAN 1.5 SSE, TX US",0.5541,GHCND:US1TXEL0078,METERS,-96.98988
232.0,2007-06-06,2019-04-01,32.541,"BURLESON 1.1 WNW, TX US",0.9808,GHCND:US1TXJN0002,METERS,-97.3458
301.4,2009-10-13,2026-03-11,32.472473,"GODLEY 2.6 NW, TX US",0.512,GHCND:US1TXJN0006,METERS,-97.561028
234.1,2011-01-01,2013-02-12,32.530494,"BURLESON 1.6 W, TX US",0.7984,GHCND:US1TXJN0010,METERS,-97.356339
236.2,2011-10-01,2014-11-22,32.475439,"BURLESON 5.7 SE, TX US",0.8007,GHCND:US1TXJN0013,METERS,-97.257805
232.6,2014-09-04,2017-03-29,32.531521,"BURLESON 0.7 W, TX US",0.6365,GHCND:US1TXJN0018,METERS,-97.340393
220.1,2019-04-01,2026-03-20,32.5111,"BURLESON 4.9 ESE, TX US",0.9988,GHCND:US1TXJN0030,METERS,-97.24852
271.6,2020-09-01,2026-03-11,32.450943,"JOSHUA 2.5 ESE, TX US",0.995,GHCND:US1TXJN0031,METERS,-97.339957
125.0,2009-02-27,2017-04-25,32.563274,"COMBINE 2.3 SE, TX US",0.0383,GHCND:US1TXKF0003,METERS,-96.488519
142.3,2013-12-06,2017-03-29,32.741117,"FORNEY 0.8 SSW, TX US",0.4322,GHCND:US1TXKF0009,METERS,-96.470583
130.8,2012-12-24,2026-03-20,32.627806,"TERRELL 8.2 SSW, TX US",0.8089,GHCND:US1TXKF0010,METERS,-96.35887
131.1,1998-06-17,2021-01-25,32.540745,"KAUFMAN 2.9 S, TX US",0.2305,GHCND:US1TXKF0011,METERS,-96.315971
156.1,2015-04-02,2019-03-27,32.75238,"TERRELL 1.8 NW, TX US",0.7321,GHCND:US1TXKF0012,METERS,-96.334804
149.7,2015-01-02,2015-09-21,32.6826400756836,"TERRELL 3.6 SSW, TX US",0.8631,GHCND:US1TXKF0015,METERS,-96.3103866577148
127.7,2014-12-31,2026-03-20,32.471614,"COTTONWOOD 1.3 NE, TX US",0.9529,GHCND:US1TXKF0020,METERS,-96.379008
271.6,2009-03-19,2012-05-31,32.858611,"AZLE 4.3 SW, TX US",0.8658,GHCND:US1TXPR0007,METERS,-97.590556
248.1,2010-04-03,2020-06-22,32.6903,"ALEDO 2.0 W, TX US",0.1344,GHCND:US1TXPR0010,METERS,-97.6381
272.2,2011-01-20,2021-10-15,32.664,"ALEDO 2.9 SW, TX US",0.7086,GHCND:US1TXPR0011,METERS,-97.637
259.4,2014-04-18,2016-04-27,32.6715240478516,"ALEDO 1.8 SSW, TX US",0.6316,GHCND:US1TXPR0018,METERS,-97.6156311035156
296.9,2017-07-28,2020-04-04,32.748936,"WILLOW PARK 1.4 ESE, TX US",0.9857,GHCND:US1TXPR0023,METERS,-97.629
294.1,2018-06-15,2020-10-24,32.883695,"SANCTUARY 1.9 SSW, TX US",0.139,GHCND:US1TXPR0025,METERS,-97.597111
242.6,2020-04-04,2023-12-02,32.91195,"AZLE 3.8 WNW, TX US",0.086,GHCND:US1TXPR0030,METERS,-97.592723
146.0,2007-09-28,2015-05-30,32.926984,"ROCKWALL 0.8 WNW, TX US",0.7655,GHCND:US1TXRK0001,METERS,-96.470077
137.5,2008-05-17,2014-09-07,32.955813,"ROCKWALL 2.6 NNW, TX US",0.3796,GHCND:US1TXRK0002,METERS,-96.477996
137.2,1998-06-17,2026-03-15,32.8831558227539,"ROCKWALL 3.1 SSW, TX US",0.4078,GHCND:US1TXRK0006,METERS,-96.484260559082
143.0,2015-03-04,2017-04-18,32.935672,"ROWLETT 2.7 NE, TX US",0.1287,GHCND:US1TXRK0007,METERS,-96.516616
142.3,2015-06-22,2016-05-28,32.963792,"ROCKWALL 3.1 NNW, TX US",0.9971,GHCND:US1TXRK0009,METERS,-96.478393
156.7,2015-07-21,2022-11-10,32.942655,"ROCKWALL 1.6 NNE, TX US",0.8727,GHCND:US1TXRK0010,METERS,-96.446929
156.4,2016-05-29,2020-09-04,32.94484,"ROCKWALL 2.0 NW, TX US",0.9397,GHCND:US1TXRK0011,METERS,-96.479505
776.0,2019-02-23,2022-10-11,32.93815,"ROCKWALL 1.5 NW, TX US",0.6526,GHCND:US1TXRK0012,METERS,-96.47378
143.9,2020-01-10,2026-03-18,32.91775,"ROCKWALL 2.7 W, TX US",0.8252,GHCND:US1TXRK0013,METERS,-96.504428
159.1,2020-09-18,2021-08-14,32.904532,"ROYSE CITY 4.9 S, TX US",0.9305,GHCND:US1TXRK0014,METERS,-96.325562
168.9,2022-08-31,2024-03-17,32.96035,"FATE 1.7 NE, TX US",0.315,GHCND:US1TXRK0016,METERS,-96.36985
203.0,2006-08-27,2015-02-23,32.886299,"WATAUGA 2.4 WNW, TX US",0.9539,GHCND:US1TXTN0005,METERS,-97.287826
199.9,2006-10-10,2012-07-23,32.887828,"WATAUGA 2.4 WNW, TX US",0.4007,GHCND:US1TXTN0007,METERS,-97.286656
165.2,2007-08-08,2014-08-18,32.732118,"ARLINGTON 3.0 NNW, TX US",0.5062,GHCND:US1TXTN0016,METERS,-97.153933
231.0,2007-09-05,2015-06-17,32.587585,"RENDON 0.5 NNE, TX US",0.07,GHCND:US1TXTN0018,METERS,-97.233682
187.1,2008-03-29,2020-01-31,32.889249,"GRAPEVINE 3.6 SW, TX US",0.6683,GHCND:US1TXTN0023,METERS,-97.110567
182.9,2008-03-28,2016-04-01,32.860403,"BLUE MOUND 2.3 ENE, TX US",0.9805,GHCND:US1TXTN0025,METERS,-97.297707
210.0,2008-04-01,2022-08-18,32.88427,"NORTH RICHLAND HILLS 1.7 NNE, TX US",0.9532,GHCND:US1TXTN0027,METERS,-97.21132
207.9,2008-03-24,2026-03-20,32.889919,"WATAUGA 1.9 NW, TX US",0.7842,GHCND:US1TXTN0030,METERS,-97.2742
245.1,2008-05-05,2026-03-11,32.872948,"SAGINAW 1.5 WNW, TX US",0.2517,GHCND:US1TXTN0032,METERS,-97.389048
220.1,2009-08-21,2011-04-11,32.587177,"CROWLEY 1.1 NE, TX US",0.5876,GHCND:US1TXTN0036,METERS,-97.34337
202.4,2008-04-10,2014-02-10,32.902709,"NORTH RICHLAND HILLS 3.0 N, TX US",0.1027,GHCND:US1TXTN0037,METERS,-97.212445
232.0,2008-09-02,2023-07-02,32.679714,"FORT WORTH 5.4 SSW, TX US",0.9858,GHCND:US1TXTN0039,METERS,-97.362921
183.5,2008-05-08,2020-08-17,32.847326,"BEDFORD 0.5 W, TX US",0.798,GHCND:US1TXTN0040,METERS,-97.142105
226.8,2008-06-09,2010-11-07,32.6588,"EDGECLIFF 3.2 W, TX US",0.9184,GHCND:US1TXTN0042,METERS,-97.3964
195.1,2008-06-06,2023-06-13,32.847644,"BLUE MOUND 2.3 E, TX US",0.4561,GHCND:US1TXTN0043,METERS,-97.297655
197.2,2008-06-30,2015-03-05,32.899197,"NORTH RICHLAND HILLS 2.8 NNE, TX US",0.1828,GHCND:US1TXTN0046,METERS,-97.207789
231.6,2008-07-15,2011-02-01,32.8974333,"AZLE 0.4 WNW, TX US",0.162,GHCND:US1TXTN0047,METERS,-97.537956
206.0,2008-09-14,2026-03-20,32.893,"FORT WORTH 11.8 NW, TX US",0.9758,GHCND:US1TXTN0055,METERS,-97.45193333
207.3,2008-12-09,2017-04-11,32.6784,"BENBROOK 0.6 E, TX US",0.9235,GHCND:US1TXTN0056,METERS,-97.4516
207.0,2008-12-15,2022-02-22,32.7081,"BENBROOK 2.1 N, TX US",0.9292,GHCND:US1TXTN0057,METERS,-97.4603
179.2,2009-01-01,2010-04-23,32.883849,"GRAPEVINE 3.5 SSW, TX US",0.3347,GHCND:US1TXTN0058,METERS,-97.091752
185.0,2009-05-27,2026-03-11,32.602139,"MANSFIELD 2.6 NNE, TX US",0.7266,GHCND:US1TXTN0061,METERS,-97.101033
196.0,2009-06-13,2026-03-11,32.876844,"NORTH RICHLAND HILLS 1.9 NE, TX US",0.9441,GHCND:US1TXTN0062,METERS,-97.193835
193.2,2009-10-29,2016-09-26,32.596466,"MANSFIELD 2.0 N, TX US",0.1137,GHCND:US1TXTN0069,METERS,-97.114349
184.1,2009-11-06,2025-01-06,32.836093,"HURST 0.8 W, TX US",0.8253,GHCND:US1TXTN0070,METERS,-97.194101
196.0,2010-06-21,2013-04-03,32.895833,"NORTH RICHLAND HILLS 2.5 NNE, TX US",0.1739,GHCND:US1TXTN0073,METERS,-97.208333
167.9,2010-07-19,2026-03-15,32.811057,"RICHLAND HILLS 0.5 W, TX US",0.9002,GHCND:US1TXTN0074,METERS,-97.233813
223.4,2010-08-01,2012-07-31,32.659767,"FORT WORTH 7.9 SW, TX US",0.9549,GHCND:US1TXTN0076,METERS,-97.432491
173.4,2010-11-07,2013-07-27,32.746086,"ARLINGTON 3.7 NNW, TX US",0.8189,GHCND:US1TXTN0077,METERS,-97.146178
205.4,2010-12-13,2011-05-17,32.906814,"KELLER 4.2 WSW, TX US",0.9936,GHCND:US1TXTN0078,METERS,-97.293879
208.8,2011-02-01,2021-08-04,32.874584,"FORT WORTH 12.5 NW, TX US",0.8684,GHCND:US1TXTN0079,METERS,-97.44327
143.9,2011-04-27,2012-10-18,32.77519,"ARLINGTON 5.7 N, TX US",0.8299,GHCND:US1TXTN0080,METERS,-97.144681
176.2,2011-07-14,2023-03-09,32.9721,"SOUTHLAKE 1.7 NE, TX US",0.9237,GHCND:US1TXTN0085,METERS,-97.1293
173.1,2011-08-01,2026-03-17,32.742499,"FORT WORTH 1.8 WSW, TX US",0.8516,GHCND:US1TXTN0086,METERS,-97.363236
216.1,1998-06-17,2019-09-20,32.8756719,"EAGLE MOUNTAIN 2.4 WSW, TX US",0.3527,GHCND:US1TXTN0087,METERS,-97.4797902
189.6,2011-10-24,2017-10-04,32.591606,"MANSFIELD 1.7 NNE, TX US",0.6829,GHCND:US1TXTN0091,METERS,-97.110678
184.7,2011-12-26,2022-08-24,32.854356,"BEDFORD 0.6 NNE, TX US",0.7944,GHCND:US1TXTN0092,METERS,-97.131006
173.1,2012-01-09,2014-06-14,32.569544,"MANSFIELD 2.8 E, TX US",0.8525,GHCND:US1TXTN0093,METERS,-97.06865
224.6,2012-01-01,2020-01-20,32.920524,"FORT WORTH 13.4 N, TX US",0.9273,GHCND:US1TXTN0094,METERS,-97.302238
235.0,2012-07-12,2023-10-24,32.557986,"CROWLEY 1.4 SSE, TX US",0.1148,GHCND:US1TXTN0100,METERS,-97.3526
208.5,2012-10-25,2015-05-27,32.7485542297363,"FORT WORTH 2.5 W, TX US",0.3926,GHCND:US1TXTN0101,METERS,-97.3789367675781
182.0,2012-08-01,2026-03-20,32.709966,"FORT WORTH 3.9 SW, TX US",0.9371,GHCND:US1TXTN0102,METERS,-97.379049
235.9,2013-02-02,2024-05-07,32.9259643554688,"HASLET 2.2 S, TX US",0.9555,GHCND:US1TXTN0106,METERS,-97.3398818969727
176.8,2013-06-02,2026-03-11,32.833080291748,"NORTH RICHLAND HILLS 1.9 S, TX US",0.6702,GHCND:US1TXTN0108,METERS,-97.2224426269531
207.9,2013-04-10,2018-09-26,32.6414337158203,"KENNEDALE 0.6 SE, TX US",0.9995,GHCND:US1TXTN0109,METERS,-97.2107543945313
248.1,2014-02-15,2017-07-03,32.9881401062012,"HASLET 3.7 WNW, TX US",0.9992,GHCND:US1TXTN0115,METERS,-97.3932037353516
204.5,2014-08-15,2015-06-17,32.701389,"FORT WORTH 4.1 SSW, TX US",0.6971,GHCND:US1TXTN0120,METERS,-97.369444
203.9,2014-12-29,2025-08-13,32.892799,"NORTH RICHLAND HILLS 2.3 NNE, TX US",0.8859,GHCND:US1TXTN0122,METERS,-97.210899
229.2,2016-04-17,2026-03-20,32.8526,"SAGINAW 1.0 SSW, TX US",0.9771,GHCND:US1TXTN0124,METERS,-97.3729
155.8,2015-07-08,2026-03-11,32.742222,"ARLINGTON 3.8 NNW, TX US",0.2031,GHCND:US1TXTN0125,METERS,-97.158333
221.6,2015-10-31,2026-03-11,32.568004,"MANSFIELD 5.3 W, TX US",0.4462,GHCND:US1TXTN0127,METERS,-97.208167
243.8,2016-02-20,2018-08-04,32.6635093688965,"FORT WORTH 6.5 SSW, TX US",0.8004,GHCND:US1TXTN0128,METERS,-97.3675689697266
191.1,2016-01-25,2026-03-20,32.7511558532715,"FORT WORTH 6.3 E, TX US",0.6319,GHCND:US1TXTN0130,METERS,-97.2273864746094
196.6,2016-03-28,2026-03-20,32.865927,"BLUE MOUND 1.6 ENE, TX US",0.9547,GHCND:US1TXTN0134,METERS,-97.313138
207.3,2016-10-01,2019-03-09,32.8905487060547,"WATAUGA 3.0 WNW, TX US",1.0,GHCND:US1TXTN0139,METERS,-97.2982177734375
189.6,2016-10-01,2026-03-19,32.85503,"WATAUGA 1.2 SSE, TX US",0.9977,GHCND:US1TXTN0140,METERS,-97.242028
260.9,2016-11-17,2025-03-15,32.627346,"EDGECLIFF 3.7 WSW, TX US",0.32,GHCND:US1TXTN0141,METERS,-97.39658
266.1,2017-10-22,2024-09-07,32.689336,"BENBROOK 3.0 WNW, TX US",0.1771,GHCND:US1TXTN0145,METERS,-97.511671
186.8,2017-12-20,2026-03-20,32.9029,"GRAPEVINE 3.2 SW, TX US",0.8878,GHCND:US1TXTN0147,METERS,-97.1124
214.6,2018-02-06,2018-05-21,32.87632,"EAGLE MOUNTAIN 1.2 S, TX US",0.981,GHCND:US1TXTN0148,METERS,-97.44123
224.9,2018-02-20,2026-03-18,32.6685,"FORT WORTH 6.5 SSW, TX US",0.883,GHCND:US1TXTN0149,METERS,-97.3831
185.3,2018-09-20,2025-05-27,32.84899,"NORTH RICHLAND HILLS 1.0 SW, TX US",0.5749,GHCND:US1TXTN0152,METERS,-97.22893
187.1,2018-10-17,2026-03-13,32.8517,"NORTH RICHLAND HILLS 0.6 SSW, TX US",0.8229,GHCND:US1TXTN0153,METERS,-97.22249
237.1,2018-09-30,2024-09-23,32.662739,"EDGECLIFF 2.3 WNW, TX US",0.1221,GHCND:US1TXTN0154,METERS,-97.380653
172.5,2018-10-04,2021-01-11,32.732899,"ARLINGTON 2.9 NNW, TX US",0.1769,GHCND:US1TXTN0155,METERS,-97.149543
189.6,2018-10-25,2026-03-14,32.85238,"NORTH RICHLAND HILLS 0.5 S, TX US",0.8977,GHCND:US1TXTN0156,METERS,-97.22067
211.5,2019-04-01,2020-03-10,32.890308,"NORTH RICHLAND HILLS 2.3 NNW, TX US",0.9594,GHCND:US1TXTN0158,METERS,-97.233869
199.6,2019-04-28,2021-03-25,32.64683,"FOREST HILL 1.0 S, TX US",0.1834,GHCND:US1TXTN0160,METERS,-97.2638
181.1,2019-09-10,2025-07-18,32.73256,"ARLINGTON 2.7 NNW, TX US",0.6045,GHCND:US1TXTN0163,METERS,-97.13693
218.8,2019-05-10,2023-03-08,32.61146,"MANSFIELD 5.8 WNW, TX US",0.4753,GHCND:US1TXTN0164,METERS,-97.20174
210.9,2019-05-29,2022-09-26,32.69257,"FORT WORTH 4.7 SSW, TX US",0.2588,GHCND:US1TXTN0167,METERS,-97.37164
175.6,2019-05-11,2026-03-19,32.76631,"ARLINGTON 5.0 N, TX US",0.6579,GHCND:US1TXTN0169,METERS,-97.12762
185.0,2019-05-11,2026-03-20,32.6826,"ARLINGTON 2.7 WSW, TX US",0.7306,GHCND:US1TXTN0170,METERS,-97.1714
176.5,2019-07-09,2026-03-20,32.70928,"FORT WORTH 3.8 SW, TX US",0.8688,GHCND:US1TXTN0171,METERS,-97.37506
167.9,2019-08-10,2021-10-27,32.66705,"GRAND PRAIRIE 2.7 SW, TX US",0.2827,GHCND:US1TXTN0173,METERS,-97.05184
208.5,2019-06-27,2026-03-20,32.61989,"ARLINGTON 5.7 SSW, TX US",0.9821,GHCND:US1TXTN0174,METERS,-97.17067
196.6,2019-09-07,2025-12-01,32.807083,"LAKE WORTH 1.0 WSW, TX US",0.9197,GHCND:US1TXTN0176,METERS,-97.448022
181.4,2019-11-30,2026-03-20,32.5949,"MANSFIELD 2.3 NNE, TX US",0.5792,GHCND:US1TXTN0177,METERS,-97.0956
218.8,2020-02-28,2022-09-02,32.763654,"WHITE SETTLEMENT 1.1 NW, TX US",0.1743,GHCND:US1TXTN0178,METERS,-97.475419
186.2,2020-03-26,2026-03-13,32.7462179014281,"FORT WORTH 5.6 E, TX US",0.2069,GHCND:US1TXTN0180,METERS,-97.2408436701199
197.2,2020-04-10,2021-01-04,32.869072,"COLLEYVILLE 1.6 S, TX US",0.5296,GHCND:US1TXTN0181,METERS,-97.145729
222.2,2020-06-25,2021-07-15,32.944482,"KELLER 2.8 WNW, TX US",0.8912,GHCND:US1TXTN0183,METERS,-97.271077
215.5,2020-09-06,2025-06-28,32.682968,"FORT WORTH 5.6 SSW, TX US",0.9419,GHCND:US1TXTN0184,METERS,-97.384344
162.2,2020-08-17,2022-06-28,32.71662,"PANTEGO 0.7 W, TX US",0.9971,GHCND:US1TXTN0185,METERS,-97.165848
211.2,2021-05-16,2024-09-29,32.899101,"WATAUGA 2.7 NW, TX US",0.7559,GHCND:US1TXTN0188,METERS,-97.282799
182.3,2021-06-29,2026-03-20,32.65956,"ARLINGTON 3.2 SE, TX US",0.555,GHCND:US1TXTN0190,METERS,-97.09013
250.5,2019-06-26,2026-03-11,32.753133,"WHITE SETTLEMENT 2.8 W, TX US",0.39,GHCND:US1TXTN0191,METERS,-97.507615
211.2,2021-10-11,2026-03-11,32.959736,"KELLER 2.1 NNW, TX US",0.9994,GHCND:US1TXTN0192,METERS,-97.235818
174.7,2021-10-20,2026-03-11,32.6916,"ARLINGTON 2.8 W, TX US",0.2438,GHCND:US1TXTN0193,METERS,-97.1747
196.3,2021-12-18,2026-03-11,32.896998,"COLLEYVILLE 0.7 WNW, TX US",0.2175,GHCND:US1TXTN0195,METERS,-97.157457
232.9,2022-04-12,2026-03-17,32.613333,"CROWLEY 6.0 WNW, TX US",0.8719,GHCND:US1TXTN0197,METERS,-97.452222
226.5,2022-06-27,2024-09-04,32.655592,"FORT WORTH 8.2 SW, TX US",0.3058,GHCND:US1TXTN0199,METERS,-97.414316
195.1,2022-06-17,2023-04-22,32.601047,"MANSFIELD 2.6 NNE, TX US",0.8387,GHCND:US1TXTN0200,METERS,-97.09693
157.9,2022-08-10,2024-06-05,32.750726,"FORT WORTH 2.6 E, TX US",0.5961,GHCND:US1TXTN0201,METERS,-97.291595
237.1,2022-08-11,2026-03-19,32.64665,"FORT WORTH 7.5 S, TX US",0.6856,GHCND:US1TXTN0203,METERS,-97.35513
244.8,2022-10-31,2026-03-08,32.6271,"FORT WORTH 9.6 SSW, TX US",0.1339,GHCND:US1TXTN0204,METERS,-97.40345
192.9,2022-11-24,2025-11-24,32.630228,"ARLINGTON 4.6 SSE, TX US",0.2352,GHCND:US1TXTN0205,METERS,-97.105844
245.4,2023-07-16,2024-08-30,32.599615,"BENBROOK 6.9 SW, TX US",0.8325,GHCND:US1TXTN0208,METERS,-97.53453
186.8,2023-09-26,2026-03-20,32.856306,"WATAUGA 1.1 SSE, TX US",0.9945,GHCND:US1TXTN0211,METERS,-97.243689
211.8,2009-09-21,2026-03-20,33.112191,"DECATUR 8.4 S, TX US",0.5066,GHCND:US1TXWS0007,METERS,-97.590808
264.0,2010-07-04,2014-06-25,33.189546,"DECATUR 3.6 SSW, TX US",0.671,GHCND:US1TXWS0009,METERS,-97.617102
276.1,2012-11-12,2016-06-03,33.0845,"RHOME 3.3 NE, TX US",0.4562,GHCND:US1TXWS0012,METERS,-97.42583
196.3,2021-03-18,2026-03-21,32.96861,"DALLAS ADDISON AIRPORT, TX US",0.9339,GHCND:USC00410058,METERS,-96.83639
215.2,1987-04-01,2020-07-31,32.4644,"ALVARADO 4 NE, TX US",0.8529,GHCND:USC00410202,METERS,-97.183
163.4,1893-01-01,2020-12-13,32.7572,"ARLINGTON SIX FLAGS, TX US",0.5632,GHCND:USC00410337,METERS,-97.0736
240.8,1949-06-25,2026-03-09,32.6475,"BENBROOK DAM, TX US",0.9799,GHCND:USC00410691,METERS,-97.4439
232.3,1985-04-01,2025-07-31,32.5066,"BURLESON, TX US",0.9594,GHCND:USC00411246,METERS,-97.3444
320.0,1948-06-01,2021-12-31,32.52241,"CRESSON, TX US",0.9889,GHCND:USC00412096,METERS,-97.64772
317.0,1904-10-01,2022-11-30,33.22184,"DECATUR, TX US",0.6054,GHCND:USC00412334,METERS,-97.58719
192.0,1913-06-01,2026-01-05,33.1991,"DENTON 2 SE, TX US",0.9804,GHCND:USC00412404,METERS,-97.1049
143.3,1940-01-01,2026-02-28,32.5338,"FERRIS, TX US",0.9165,GHCND:USC00413133,METERS,-96.6608
196.3,1948-08-01,2026-03-24,32.8342,"FORT WORTH WSFO, TX US",0.443,GHCND:USC00413285,METERS,-97.2981
187.5,2003-01-01,2026-03-25,32.8472,"FORT WORTH NATURE CENTER, TX US",0.8963,GHCND:USC00413289,METERS,-97.4761
179.5,2009-10-01,2023-06-30,32.7341,"FORT WORTH BOTANIC GARDEN, TX US",0.9289,GHCND:USC00413290,METERS,-97.3677
227.7,1966-11-01,2023-04-06,33.1924,"FRISCO, TX US",0.9964,GHCND:USC00413370,METERS,-96.793
178.3,1897-01-01,2026-02-28,32.9506,"GRAPEVINE DAM, TX US",0.7114,GHCND:USC00413691,METERS,-97.0553
229.5,2010-02-01,2014-02-24,32.98667,"HASLET, TX US",1.0,GHCND:USC00413998,METERS,-97.37222
180.1,1984-03-01,2026-02-28,32.6405,"JOE POOL LAKE, TX US",0.942,GHCND:USC00414597,METERS,-96.9747
195.1,2001-11-01,2026-03-11,33.0805,"JUSTIN, TX US",0.9761,GHCND:USC00414679,METERS,-97.2966
155.4,1949-07-01,2026-02-28,33.0352,"LAVON DAM, TX US",0.9695,GHCND:USC00415094,METERS,-96.4861
169.5,1964-02-01,2026-02-28,33.0694,"LEWISVILLE DAM, TX US",0.8992,GHCND:USC00415192,METERS,-97.0094
189.6,1903-04-03,2026-03-24,33.23639,"MC KINNEY 3 S, TX US",0.7693,GHCND:USC00415766,METERS,-96.64194
230.1,1997-08-01,2026-03-11,32.49156,"MIDLOTHIAN, TX US",0.9432,GHCND:USC00415897,METERS,-96.99915
160.9,2021-10-01,2025-06-30,32.81671,"NORTH RICHLAND HILLS, TX US",0.9876,GHCND:USC00416437,METERS,-97.21669
259.1,2002-08-01,2011-12-10,32.81361,"REMUDA, TX US",0.9822,GHCND:USC00417550,METERS,-97.57556
206.7,1946-07-21,2026-02-28,32.9963,"RICHARDSON, TX US",0.9498,GHCND:USC00417588,METERS,-96.7427
195.4,1941-11-01,2017-12-31,33.005,"ROANOKE, TX US",0.9818,GHCND:USC00417659,METERS,-97.233
111.6,1941-10-10,2026-03-10,32.45784,"ROSSER, TX US",0.9599,GHCND:USC00417773,METERS,-96.45588
150.9,1941-08-01,2020-06-30,32.7336,"TERRELL, TX US",0.9165,GHCND:USC00418929,METERS,-96.3224
317.0,2000-01-01,2026-03-23,33.1728,"LBJ RD TEXAS, TX US",0.9957,GHCND:USR0000TLBJ,METERS,-97.3756
175.3,2016-01-01,2026-03-21,32.93059,"RALPH M HALL ROCKWALL MUNICIPAL AIRPORT, TX US",0.8288,GHCND:USW00000448,METERS,-96.43548
165.7,1948-01-01,2026-03-21,32.89744,"DAL FTW WSCMO AIRPORT, TX US",0.932,GHCND:USW00003927,METERS,-97.02196
200.4,1998-01-01,2026-03-21,32.67816,"DALLAS REDBIRD AIRPORT, TX US",0.996,GHCND:USW00003971,METERS,-96.86771
213.4,2021-03-18,2026-03-21,32.565,"DALLAS FORT WORTH SPINKS AIRPORT, TX US",0.9388,GHCND:USW00003985,METERS,-97.30806
194.6,1996-07-01,2026-03-21,33.20883,"DENTON MUNICPAL AIRPORT, TX US",0.9949,GHCND:USW00003991,METERS,-97.19922
185.3,1949-01-01,2026-03-21,32.76667,"FORT WORTH NAS, TX US",0.6177,GHCND:USW00013911,METERS,-97.45
147.6,1939-08-01,2026-03-21,32.83839,"DALLAS FAA AIRPORT, TX US",0.9996,GHCND:USW00013960,METERS,-96.83583
213.6,1946-09-02,2026-03-21,32.82478,"FORT WORTH MEACHAM FIELD, TX US",0.5049,GHCND:USW00013961,METERS,-97.36403
179.7,1997-08-01,2026-03-21,32.65832,"ARLINGTON MUNICIPAL AIRPORT, TX US",0.9882,GHCND:USW00053907,METERS,-97.09509
215.6,1997-10-01,2026-03-21,32.99434,"FORT WORTH ALLIANCE AIRPORT, TX US",0.998,GHCND:USW00053909,METERS,-97.32034
173.3,1998-04-20,2026-03-21,33.18286,"MCKINNEY MUNICIPAL AIRPORT, TX US",0.9974,GHCND:USW00053914,METERS,-96.58988
319.1,2011-07-01,2026-03-15,33.25444,"DECATUR MUNICIPAL AIRPORT, TX US",0.9825,GHCND:USW00053964,METERS,-97.58056
228.3,2011-10-01,2026-03-21,32.45611,"MID WAY REGIONAL AIRPORT MIDLOTHIAN WAXAHACHIE, TX US",0.9692,GHCND:USW00053966,METERS,-96.9125
136.2,2021-03-18,2026-03-21,32.74694,"MESQUITE METRO AIRPORT, TX US",0.9333,GHCND:USW00053970,METERS,-96.53056
152.7,2021-03-18,2026-03-10,32.57917,"LANCASTER AIRPORT, TX US",0.9071,GHCND:USW00053975,METERS,-96.71917
179.5,2021-03-18,2026-03-21,32.69861,"GRAND PRAIRIE MUNICIPAL AIRPORT, TX US",0.9421,GHCND:USW00053984,METERS,-97.04667
214.9,1945-03-01,2025-08-27,32.81667,"FORT WORTH MEACHAM FIELD NAAF, TX US",0.255,GHCND:USW00093904,METERS,-97.35
